name;venue_id;venue_capacity;venue_lat;venue_lng;venue_city;venue_country;venue_state;venue_zip
1st Mariner Arena;1221;14405;39.29;-76.62;Baltimore;US;MD;21201
1st SUMMIT ARENA at Cambria County War Memorial;695;4005;40.32;-78.92;Johnstown;US;PA;15901
3rd & Lindsley;19;505;36.15;-86.77;Nashville;US;TN;37210
8 Seconds Saloon;320;505;39.77;-86.25;Indianapolis;US;IN;46224
A and R Music Bar;396;1705;39.97;-83.01;Columbus;US;OH;43215
Abbotsford Centre;624;7050;49.03;-122.29;Abbotsford;CA;BC;V2S 7P2
Abdo New River Room at the Broward Center;268;0;26.12;-80.15;Ft Lauderdale;US;FL;33312
Abraham Chavez Theatre;274;2505;31.76;-106.49;El Paso;US;TX;79901
Academy Theatre for Performing Arts;595;0;44.36;-78.73;Lindsay;CA;ON;K9V 2L6
Access Showroom at Aliante Casino & Hotel;1034;355;36.29;-115.18;North Las Vegas;US;NV;89084
Acs Lounge - Soboba Casino;1188;0;33.78;-116.92;San Jacinto;US;CA;92583
Adler Theatre;246;2405;41.52;-90.57;Davenport;US;IA;52801
Agganis Arena;450;7505;42.35;-71.12;Boston;US;MA;2215
Akron Civic Theatre;185;3505;41.08;-81.52;Akron;US;OH;44308
Alabama Theatre;964;2505;33.55;-86.75;Birmingham;US;AL;35203
Alehouse;1332;0;44.23;-76.49;Kingston;CA;ON;K7L 1B9
Alerus Center;1237;22005;47.91;-97.09;Grand Forks;US;ND;58201
Allen County War Memorial Coliseum;258;13005;41.11;-85.13;Fort Wayne;US;IN;46805
Allen Event Center;150;7005;33.13;-96.65;Allen;US;TX;75002
Allstate Arena;767;19005;42.01;-87.89;Rosemont;US;IL;60018
Aloha Stadium;816;50420;21.37;-157.93;Honolulu;US;HI;96820
Amalie Arena;287;22005;27.94;-82.45;Tampa;US;FL;33602
Amaturo Theater at Broward Center;270;5460;26.12;-80.15;Ft Lauderdale;US;FL;33312
American Airlines Center;788;20025;32.79;-96.81;Dallas;US;TX;75201
American Theatre;;0;37.02;-76.32;Hampton;US;VA;23663
AmericanAirlines Arena;805;20005;25.78;-80.19;Miami;US;FL;33132
Ameristar Casino and Hotel;313;0;39.15;-94.48;Kansas City;US;MO;64161
Ames Center;585;1015;44.77;-93.28;Burnsville;US;MN;55337
AMSOIL Arena;822;8005;46.78;-92.1;Duluth;US;MN;55802
Amway Center;752;19605;28.54;-81.38;Orlando;US;FL;32801
Anderson Theatre;1415;610;33.94;-84.54;Marietta;US;GA;30060
Apollo Theater;146;1510;40.81;-73.95;New York;US;NY;10027
Aragon Ballroom;329;4505;41.97;-87.66;Chicago;US;IL;60640
Arden Theatre;1470;530;53.63;-113.63;St Albert;CA;AB;T8N 3Z9
Arlene's Grocery;;0;40.72;-73.99;New York;US;NY;10002
Arts at the Armory;1082;0;42.39;-71.11;Somerville;US;MA;2143
Asbury Park Brewery;1084;0;39.97;-83; Asbury Park;US;NJ;7712
ASU Gammage;689;3015;33.42;-111.94;Tempe;US;AZ;85287
ASU Kerr Cultural Center;535;0;33.53;-111.93;Scottsdale;US;AZ;85253
Atlanta Symphony Hall;1135;1765;33.79;-84.39;Atlanta;US;GA;30309
Attucks Theatre;;625;36.86;-76.28;Norfolk;US;VA;23510
Au-Rene Theater at the Broward Center;200;2705;26.12;-80.15;Ft Lauderdale;US;FL;33312
Austin's Fuel Room;895;1205;42.28;-87.95;Libertyville;US;IL;60048
Balboa Theatre;158;1340;32.71;-117.16;San Diego;US;CA;92101
Ball State University Pruis Hall;1264;3580;40.2;-85.41;Muncie;US;IN;47306
Baltimore Soundstage;291;0;39.29;-76.61;Baltimore;US;MD;21202
BancorpSouth Arena;691;10005;34.26;-88.7;Tupelo;US;MS;38804
Bank of Springfield Center;1263;8705;39.8;-89.66;Springfield;US;IL;62701
Bankers Life Fieldhouse;740;18505;39.76;-86.16;Indianapolis;US;IN;46204
Barclays Center;346;18105;40.68;-73.98;Brooklyn;US;NY;11217
Bardavon 1869 Opera House;1187;945;41.7;-73.93;Poughkeepsie;US;NY;12601
Barness Recital Hall;1243;0;28.06;-82.41;Tampa;US;FL;33620
BB&T Arena;331;9405;39.03;-84.46;Highland Heights;US;KY;41099
BB&T Center;735;20005;26.16;-80.33;Sunrise;US;FL;33323
BC Place;719;50005;49.28;-123.11;Vancouver;CA;BC;V6B 4Y8
Beat Kitchen;13;280;41.94;-87.68;Chicago;US;IL;60618
Beau Rivage Theatre;412;1505;30.39;-88.89;Biloxi;US;MS;39530
Bell MTS Place;615;15005;49.89;-97.14;Winnipeg;CA;MB;R3C 5S4
Ben Franklin Parkway;;0;39.96;-75.17;Philadelphia;US;PA;19130
Benedum Center;1117;2805;40.44;-79.96;Pittsburgh;US;PA;15222
Bergen Performing Arts Center;275;1367;40.9;-73.97;Englewood;US;NJ;7631
Bethel Woods Center for the Arts;1149;16055;41.7;-74.88;Bethel;US;NY;12720
Bethune Cookman University - Mary McLeod Bethune Performing Arts;;0;29.21;-81.03;Daytona Beach;US;FL;32114
Big Sandy Superstore Arena;817;7505;38.42;-82.45;Huntington;US;WV;25701
Bill Graham Civic Auditorium;444;7005;37.78;-122.42;San Francisco;US;CA;94102
Billie Jean King National Tennis Center;;23205;40.74;-73.84;Flushing;US;NY;11368
Bing Crosby Theater;886;760;47.66;-117.43;Spokane;US;WA;99201
Birchmere;1123;505;38.84;-77.06;Alexandria;US;VA;22305
BJCC Concert Hall;715;2805;33.52;-86.81;Birmingham;US;AL;35203
BJCC Exhibition Halls;1281;25730;33.52;-86.81;Birmingham;US;AL;35202
Black River Coliseum;1025;5005;36.76;-90.4;Poplar Bluff;US;MO;63901
Blue Chip Casino;469;805;41.72;-86.89;Michigan City;US;IN;46360
Blue Cross Arena;591;12880;43.15;-77.61;Rochester;US;NY;14614
Blue Grotto;;155;50.68;-120.33;Kamloops;CA;BC;V2C 2A2
Bluma Appel Theatre at St Lawrence Centre;858;0;43.65;-79.38;Toronto;CA;ON;M5E 1B4
BMO Centre;1107;3455;51.04;-114.05;Calgary;CA;AB;T2G 2W1
BMO Harris Bank Center;847;8005;42.27;-89.1;Rockford;US;IL;61101
Bob Carpenter Center at University of Delaware;974;5005;39.68;-75.75;Newark;US;DE;19716
Bob Hope Theatre;159;2905;37.95;-121.29;Stockton;US;CA;95202
Boch Center Wang Theatre (formerly Citi Performing Arts Center);950;3605;42.35;-71.07;Boston;US;MA;2116
Bogart's presented by Cricket Wireless;324;1465;39.13;-84.51;Cincinnati;US;OH;45219
Boston Opera House;1252;2680;42.35;-71.06;Boston;US;MA;2111
Bottom Lounge;32;305;41.89;-87.66;Chicago;US;IL;60607
Bourbon Street Bar;1124;0;32.61;-85.48;Auburn;US;AL;36830
Bowery Ballroom;993;505;40.72;-73.99;New York;US;NY;10002
Braden Auditorium;345;3485;40.51;-88.99;Normal;US;IL;61761
Brandt Centre - Evraz Place;614;6140;50.45;-104.63;Regina;CA;SK;S4P 2Z6
Brick and Mortar Music Hall;90;0;37.77;-122.42;San Francisco;US;CA;94103
Bridge View Center;237;2605;41.01;-92.42;Ottumwa;US;IA;52501
Bridgestone Arena;284;20005;36.16;-86.78;Nashville;US;TN;37203
Brighton Music Hall;573;345;42.35;-71.13;Boston;US;MA;2134
Broadmoor World Arena;773;8100;38.78;-104.79;Colorado Springs;US;CO;80906
Broadway Comedy Club;1380;280;40.76;-73.99;New York City;US;NY;10019
Broadway Playhouse at Water Tower Place;273;550;41.9;-87.62;Chicago;US;IL;60611
Broncos Stadium At Mile High;724;76130;39.74;-105.02;Denver;US;CO;80204
Broome County Forum;813;1530;42.1;-75.91;Binghamton;US;NY;13901
Bruton Theatre;1274;1755;32.78;-96.8;Dallas;US;TX;75201
Bryce Jordan Center;364;15005;40.81;-77.86;University Park;US;PA;16802
Buckhead Theatre;349;2505;33.84;-84.38;Atlanta;US;GA;30305
Budweiser Gardens;616;9105;42.98;-81.25;London;CA;ON;N6A 6K1
Budweiser Stage;;16005;43.63;-79.41;Toronto;CA;ON;M6K 3L3
Burton Cummings Theatre;610;1640;49.9;-97.14;Winnipeg;CA;MB;R3B 2H2
Cadillac Palace;588;2345;41.88;-87.63;Chicago;US;IL;60602
Cajundome Convention Center;704;12070;30.22;-92.04;Lafayette;US;LA;70506
Calgary Petroleum Club;;0;51.05;-114.07;Calgary;CA;AB;T2P0L5
California Theatre of the Performing Arts;;1720;34.11;-117.3;San Bernardino;US;CA;92401
Camping World Stadium;;65440;28.54;-81.4;Orlando;US;FL;32805
Cannon Center for the Performing Arts;584;2105;35.15;-90.05;Memphis;US;TN;38103
Capital Ballroom (formerly Sugar Nightclub);515;0;48.43;-123.36;Victoria;CA;BC;V8W 1L8
Capitol Theater - Overture Center;1169;2205;43.07;-89.39;Madison;US;WI;53703
Carnegie Hall;1087;2805;40.77;-73.98;New York;US;NY;10019
Carnegie Music Hall of Oakland;1306;1005;40.44;-79.95;Pittsburgh;US;PA;15213
Carolines on Broadway;100;285;40.76;-73.98;New York;US;NY;10036
Carrier Dome;;49505;43.04;-76.14;Syracuse;US;NY;13244
Casino Rama Resort;716;5030;44.63;-79.35;Rama;CA;ON;L0K 1T0
Castro Theater;166;1405;37.76;-122.43;San Francisco;US;CA;94114
Catalina Bar & Grill;26;240;34.1;-118.34;Hollywood;US;CA;90028
Cathedral Theatre at the Masonic Temple Detroit;799;1605;42.34;-83.06;Detroit;US;MI;48201
Celeste Center;1151;10205;40;-82.99;Columbus;US;OH;43211
Centennial Hall;815;0;32.23;-110.96;Tucson;US;AZ;85724
Center Stage Theater;240;1055;33.79;-84.39;Atlanta;US;GA;30309
Century Casino;1155;395;51.02;-114.04;Edmonton;CA;AB;T5A 1C3
CenturyLink Center;832;14005;32.47;-93.67;Bossier City;US;LA;71112
CFE Arena;454;10005;28.61;-81.2;Orlando;US;FL;32816
Chaifetz Arena;1139;10605;38.63;-90.23;St. Louis;US;MO;63103
Chameleon Club;569;14005;40.04;-76.31;Lancaster;US;PA;17603
Chandler Center for the Arts;841;350;33.31;-111.84;Chandler;US;AZ;85224
Charles Playhouse;249;530;42.35;-71.07;Boston;US;MA;2116
Charles Playhouse Second Stage;1074;0;42.35;-71.07;Boston;US;MA;2116
Charleston Civic Center;794;13505;38.36;-81.64;Charleston;US;WV;25301
Chase Field;;69005;33.44;-112.07;Phoenix;US;AZ;85004
Chesapeake Conference Center;1147;0;36.79;-76.23;Chesapeake;US;VA;23320
Chesapeake Energy Arena;789;19715;35.46;-97.51;Oklahoma City;US;OK;73102
Chesterfield Amphitheater;;0;38.65;-90.57;Chesterfield;US;MO;63017
CHI Health Center Omaha;737;18205;41.26;-95.93;Omaha;US;NE;68102
Choctaw Casino Hotel - Pocola CenterStage;;0;35.29;-94.44;Pocola;US;OK;74902
Chrysler Hall;1042;2505;36.85;-76.29;Norfolk;US;VA;23514
Citizens Business Bank Arena;409;0;34.08;-117.57;Ontario;US;CA;91764
City Theatre;;505;42.34;-83.05;Detroit;US;MI;48201
CityStage;705;955;42.1;-72.59;Springfield;US;MA;1103
Civic Opera House;714;3565;41.88;-87.64;Chicago;US;IL;60606
Clarence Muse Cafe Theater;234;230;32.77;-96.8;Dallas;US;TX;75201
Clowes Memorial Hall;189;2105;39.84;-86.17;Indianapolis;US;IN;46208
Club Cafe;206;155;40.43;-79.99;Pittsburgh;US;PA;15203
Club Domina at the Hard Rock Hotel & Casino;1018;0;36.11;-115.15;Las Vegas;US;NV;89169
Club Red;1329;505;33.42;-111.89;Mesa;US;AZ;85201
Club Regent Event Centre;599;0;49.9;-97.04;Winnipeg;CA;MB;R2C 3B2
Club XL;728;0;40.24;-74.76;Harrisburg;US;PA;17104
Cobb Energy Performing Arts Centre;223;2755;33.88;-84.46;Atlanta;US;GA;30339
Cobb's Comedy Club;991;405;37.8;-122.41;San Francisco;US;CA;94133
Coca-Cola Coliseum;622;7005;43.64;-79.42;Toronto;CA;ON;M6K 3C3
Coliseum at Alliant Energy Center;807;10235;43.04;-89.38;Madison;US;WI;53713
Columbia City Theater;1077;0;47.56;-122.28;Seattle;US;WA;98118
Columbus Civic Center;827;10005;32.45;-84.99;Columbus;US;GA;31901
Comedy Underground - Seattle;647;105;47.6;-122.33;Seattle;US;WA;98104
Comerica Theatre;452;5005;33.45;-112.08;Phoenix;US;AZ;85003
Commodore Ballroom;490;995;49.28;-123.12;Vancouver;CA;BC;V6Z 1K3
Commonwealth Stadium / Stade du Commonwealth;1023;60005;53.56;-113.47;Edmonton;CA;AB;T5H 4E2
Constellation Room;38;305;33.7;-117.92;Santa Ana;US;CA;92704
Coors Event Centre (formerly known as O'Brians Event Centre);;1005;52.13;-106.67;Saskatoon;CA;SK;S7K 1K8
Coronado Performing Arts Center;271;185;42.27;-89.09;Rockford;US;IL;61101
Coushatta Casino Resort;363;6205;30.49;-92.85;Kinder;US;LA;70648
Covelli Centre;797;6125;41.1;-80.65;Youngstown;US;OH;44503
Crest Theatre;327;915;38.58;-121.49;Sacramento;US;CA;95814
Cross Insurance Arena (Formerly Cumberland County Civic Center);1030;6735;43.66;-70.26;Portland;US;ME;4101
Cross Insurance Center;583;0;44.79;-68.78;Bangor;US;ME;4401
CSUN - Cal State Northridge;579;0;34.24;-118.53;Northridge;US;CA;91330
Cubby Bear;202;805;41.95;-87.66;Chicago;US;IL;60613
Culture Room;422;605;26.17;-80.12;Ft Lauderdale;US;FL;33306
Cypress Bayou Casino;878;0;29.87;-91.54;Charenton;US;LA;70523
DAR Constitution Hall;914;3705;38.89;-77.04;Washington;US;DC;20006
Dark Horse Tavern;;0;40.66;-73.65;Rockville Centre;US;NY;11570
Daveys Uptown Ramblers Club;;305;39.07;-94.59;Kansas City;US;MO;64111
Daytona Stadium;1091;10005;29.17;-81.12;Daytona Beach;US;FL;32114
DCU Center;440;14805;42.27;-71.8;Worcester;US;MA;1608
DECC's Symphony Hall;152;2105;46.78;-92.1;Duluth;US;MN;55802
Deluxe at Old National Centre;338;2005;39.77;-86.15;Indianapolis;US;IN;46204
Detroit Opera House;144;2705;42.34;-83.05;Detroit;US;MI;48226
DeVos Performance Hall;245;2405;42.97;-85.67;Grand Rapids;US;MI;49503
DeVos Place;1269;14565;42.97;-85.67;Grand Rapids;US;MI;49503
Diamond Pub Concert Hall;621;805;38.25;-85.73;Louisville;US;KY;40204
Dolby Theatre;887;0;34.1;-118.34;Hollywood;US;CA;90028
Don Haskins Center;911;12225;31.78;-106.5;El Paso;US;TX;79968
Dow Event Center;175;7650;43.44;-83.94;Saginaw;US;MI;48607
Dr Phillips Center for the Performing Arts;1114;0;28.54;-81.38;Orlando;US;FL;32801
Drom;1296;355;40.73;-73.98;New York;US;NY;10009
Drury Lane Theatre;203;2200;41.86;-87.95;Oakbrook Terrace;US;IL;60181
Duck Room at Blueberry Hill;576;345;38.66;-90.3;St Louis;US;MO;63130
Dunkin' Donuts Center;1588;14505;41.82;-71.42;Providence;US;RI;2903
E.J. Thomas Hall - The University of Akron;212;2960;41.08;-81.52;Akron;US;OH;44325
EagleBank Arena;459;10205;38.83;-77.31;Fairfax;US;VA;22030
Eastern Kentucky Expo Center;417;7005;37.48;-82.52;Pikeville;US;KY;41501
Edmonton EXPO Centre;717;5530;53.57;-113.47;Edmonton;CA;AB;T5J 2N5
Egyptian Room at Old National Centre;1100;2005;39.77;-86.15;Indianapolis;US;IN;46204
El Paso County Coliseum;1026;7505;31.77;-106.44;El Paso;US;TX;79905
Elgin and Winter Garden Theatre Centre;504;605;43.65;-79.38;Toronto;CA;ON;M5B 1M4
Embassy Theatre;924;825;41.08;-85.14;Fort Wayne;US;IN;46802
Emens Auditorium;1255;3585;40.21;-85.41;Muncie;US;IN;47306
Emerald Queen Casino;920;2505;47.24;-122.4;Tacoma;US;WA;98404
Empire Arts Center;1408;420;47.92;-97.03;Grand Forks;US;ND;58201
Encore Theater at Wynn Las Vegas;1174;1850;36.13;-115.17;Las Vegas;US;NV;89109
Enterprise Center;747;21005;38.63;-90.2;St Louis;US;MO;63103
Erie Insurance Arena;758;0;42.13;-80.08;ERIE;US;PA;16501
Event Center at San Jose State University;451;5005;37.33;-121.88;San Jose;US;CA;95192
Evraz Place;501;6140;50.45;-104.61;Regina;CA;SK;S4P 2Z6
Exactech Arena at the Stephen C. O'Connell Center;204;11550;29.65;-82.35;Gainesville;US;FL;32611
EXPRESS LIVE!;1313;7205;39.97;-83.01;Columbus;US;OH;43215
F.G. Clark Activity Center - Southern University;;8005;30.52;-91.2;Baton Rouge;US;LA;70807
F.M. Kirby Center;244;2005;41.25;-75.88;Wilkes-Barre;US;PA;18701
Falbo Theatre;1259;110;39.63;-79.95;Morgantown;US;WV;26506
FAMU Al Lawson Jr. Multipurpose Center;151;9640;30.42;-84.29;Tallahassee;US;FL;32307
Fargo Civic Center;1185;4450;46.88;-96.78;Fargo;US;ND;58102
FAU - Carole & Barry Kaye Performing Arts Auditorium;;0;26.89;-80.11;Boca Raton;US;FL;33431
FedExForum;1035;18505;35.14;-90.05;Memphis;US;TN;38103
Festival Place;1503;505;53.53;-113.3;Sherwood Park;CA;AB;T8A 5T2
Fete Music Hall;586;0;41.82;-71.44;Providence;US;RI;2909
Fillmore Auditorium (Denver);296;3705;39.74;-104.98;Denver;US;CO;80218
Fine Line Music Cafe;852;760;44.98;-93.27;Minneapolis;US;MN;55401
First National Bank Arena;1247;11005;35.84;-90.67;Jonesboro;US;AR;72401
FirstOntario Centre;;18505;43.26;-79.87;Hamilton;CA;ON;L8R 3L4
FirstOntario Concert Hall (Formerly Hamilton Place);598;2195;43.26;-79.87;Hamilton;CA;ON;L8P 4Y2
Fisher Theatre;863;2090;42.37;-83.08;Detroit;US;MI;48202
FitzGerald's;372;705;41.87;-87.79;Berwyn;US;IL;60402
Five Flags Center;211;5205;42.5;-90.67;Dubuque;US;IA;52001
Flint Center;134;2410;37.32;-122.04;Cupertino;US;CA;95014
Florence Gould Hall at FIAF;1414;365;40.76;-73.97;New York;US;NY;10022
Floyd L. Maines Veterans Memorial Arena;896;7005;42.1;-75.91;Binghamton;US;NY;13901
Ford Center;819;10905;37.97;-87.57;Evansville;US;IN;47708
Ford Field;;46005;42.34;-83.05;Detroit;US;MI;48226
Fortune Sound Club;549;1005;49.28;-123.1;Vancouver;CA;BC;V6A 1T6
Fountain Street Church;800;1505;42.97;-85.67;Grand Rapids;US;MI;49503
Fox Cities PAC;208;2075;44.26;-88.41;Appleton;US;WI;54911
Fox Fine Arts Recital Hall;528;11770;31.77;-106.5;El Paso;US;TX;79968
Fox Performing Arts Center;416;1555;33.98;-117.38;Riverside;US;CA;92501
Fox Theater - Oakland;947;2805;37.81;-122.27;Oakland;US;CA;94612
Fox Theatre;1118;1405;33.77;-84.38;Atlanta;US;GA;30308
Fox Theatre Detroit;432;5175;42.34;-83.05;Detroit;US;MI;48201
FRANCIS-BOOTH EXPERIMENTAL THEATRE;1019;0;38.42;-82.43;Huntington;US;WV;25755
Fred Kavli Theatre-Thousand Oaks Civic Arts Plaza;133;1805;34.18;-118.85;Thousand Oaks;US;CA;91362
Freedom Hall;1242;18750;38.11;-85.69;Louisville;US;KY;40209
French Lick Resort;;1205;38.55;-86.62;French Lick;US;IN;47432
Garrett Coliseum;;8530;32.4;-86.27;Montgomery;US;AL;36107
Gas Station Arts Centre;;0;49.88;-97.15;Winnipeg;CA;MB;R3L0C3
Gaslamp Long Beach;176;0;33.76;-118.11;Long Beach;US;CA;90803
Genesee Theatre;851;2405;42.36;-87.83;Waukegan;US;IL;60085
Genghis Cohen;24;65;34.08;-118.36;Los Angeles;US;CA;90046
George Weston Recital Hall at the Toronto Centre for the Arts;498;1855;43.77;-79.41;Toronto;CA;ON;M2N 6R8
Germain Arena;750;8285;26.44;-81.78;Estero;US;FL;33928
Gershwin Theatre;693;1935;40.76;-73.99;New York;US;NY;10019
GIANT Center;764;12005;40.29;-76.68;Hershey;US;PA;17033
Gladys G Davis Theatre;;215;39.63;-79.95;Morgantown;US;WV;26506
Gold Strike Casino;425;770;34.85;-90.33;Tunica Resorts;US;MS;38664
Golden Nugget;839;0;39.38;-74.43;Atlantic City;US;NJ;8401
Golden State Theatre;1088;1605;36.6;-121.89;Monterey;US;CA;93940
Gramercy Theatre;238;500;40.74;-73.99;New York;US;NY;10010
Granada;40;1705;38.96;-95.24;Lawrence;US;KS;66044
Grand Ole Opry House;1028;4375;36.21;-86.69;Nashville;US;TN;37214
Grand Sierra Resort and Casino;290;4005;39.53;-119.78;Reno;US;NV;89595
Greek Theatre;925;5805;34.12;-118.29;Los Angeles;US;CA;90027
Greenwich Village Comedy Club;866;70;40.73;-74;New York;US;NY;10012
Grizzly Rose;231;2005;39.8;-104.99;Denver;US;CO;80216
Grossinger Motors Arena;808;7005;40.48;-89;Bloomington;US;IL;61701
Hampton Beach Casino Ballroom;;705;42.91;-70.81;Hampton Beach;US;NH;3842
Hampton Coliseum;;13805;37.03;-76.38;Hampton;US;VA;23666
Hard Rock Cafe - Seattle;659;855;47.61;-122.34;Seattle;US;WA;98101
Hard Rock Live;1248;1400;30.39;-88.89;Biloxi;US;MS;39530
Hard Rock Live Orlando;1104;3005;28.47;-81.47;Orlando;US;FL;32819
Harold Washington Cultural Center;;1005;41.81;-87.62;Chicago;US;IL;60653
Harrah's Resort Atlantic City;;0;39.38;-74.43;Atlantic City;US;NJ;8401
Harrison Opera House;1302;1635;36.86;-76.29;Norfolk;US;VA;23510
Hart Theatre at the Egg;684;985;42.65;-73.76;Albany;US;NY;12220
Heinz Hall;1426;2265;40.44;-79.89;Pittsburgh;US;PA;15222
Herbst Theatre;801;930;37.78;-122.42;San Francisco;US;CA;94102
Hershey Theatre;307;1905;40.29;-76.65;Hershey;US;PA;17033
Heymann Performing Arts Center;963;2195;30.2;-92.02;Lafayette;US;LA;70503
Highline Ballroom;141;1105;40.74;-74.01;New York City;US;NY;10011
Hippodrome at France-Merrick Performing Arts Center;335;2305;39.29;-76.62;Baltimore;US;MD;21201
Hollywood Bowl;467;17505;34.11;-118.34;Hollywood;US;CA;90078
Hollywood Christmas Parade;448;0;34.1;-118.34;Hollywood;US;CA;90028
Hollywood Palladium;369;3705;34.1;-118.32;Hollywood;US;CA;90028
Honda Center;850;19405;33.81;-117.88;Anaheim;US;CA;92806
Horseshoe Casino's Bluesville;310;3305;34.85;-90.33;Robinsonville;US;MS;38664
House of Blues Anaheim presented by Cricket Wireless;299;1055;33.81;-117.92;Anaheim;US;CA;92802
House of Blues Boston presented by Cricket Wireless;339;2430;42.35;-71.1;Boston;US;MA;2215
House of Blues Chicago presented by Cricket Wireless;315;1305;41.89;-87.63;Chicago;US;IL;60654
House of Blues Cleveland presented by Cricket Wireless;384;1205;41.5;-81.69;Cleveland;US;OH;44114
House of Blues Dallas presented by Cricket Wireless;399;1630;32.79;-96.81;Dallas;US;TX;75202
House of Blues Las Vegas;31;1805;36.09;-115.17;Las Vegas;US;NV;89119
House of Blues New Orleans presented by Cricket Wireless;80;505;29.95;-90.07;New Orleans;US;LA;70130
House of Blues Orlando;297;2505;28.37;-81.52;Orlando;US;FL;32830
House of Blues San Diego;298;1505;32.72;-117.16;San Diego;US;CA;92101
Howard Theatre;592;1245;38.92;-77.02;Washington;US;DC;20001
Howlin' Wolf;78;1305;29.94;-90.07;New Orleans;US;LA;70130
Hoyt Sherman Place;217;1255;41.59;-93.64;Des Moines;US;IA;50309
Hume Hotel;493;0;0;0;Nelson;CA;BC;V1L 4E5
HUMPHREYS CONCERT LAWN;;1405;32.72;-117.22;San Diego;US;CA;92106
Humphreys Concerts By the Bay;955;1405;32.72;-117.22;San Diego;US;CA;92106
Huntington Center;761;8005;41.65;-83.54;Toledo;US;OH;43604
IMAX THEATRE at TROPICANA;970;0;39.35;-74.44;Atlantic City;US;NJ;8401
Indiana Farmers Coliseum;1125;7005;39.83;-86.13;Indianapolis;US;IN;46205
Indiana University Auditorium;1240;3205;39.17;-86.52;Bloomington;US;IN;47405
INVESTORS BANK PERFORMING ARTS CENTER;1177;2505;39.74;-75.08;Sewell;US;NJ;8080
IP Casino Resort and Spa;311;1360;30.41;-88.89;Biloxi;US;MS;39530
Iridium;171;145;40.76;-73.98;New York;US;NY;10023
Ironstone Amphitheatre at Ironstone Vineyards;;0;38.12;-120.47;Murphys;US;CA;95247
Irving Plaza presented by Cricket Wireless;292;1030;40.73;-73.99;New York;US;NY;10003
Island View Casino;;0;30.36;-89.1;Gulfport;US;MS;39501
Jacksonville Veterans Memorial Arena;731;15005;30.33;-81.65;Jacksonville;US;FL;32202
Jacobs Music Center's Copley Symphony Hall;1112;2260;32.72;-117.16;San Diego;US;CA;92101
James L Knight Center;154;4650;25.77;-80.19;Miami;US;FL;33131
Jane Mallett Theatre at St Lawrence Centre;489;0;43.65;-79.38;Toronto;CA;ON;M5E 1B4
Jannus Live;1209;2005;27.77;-82.64;St Petersburg;US;FL;33701
Japan America Theatre;1217;0;34.05;-118.24;Los Angeles;US;CA;90012
Japanese Canadian Cultural Centre;;0;43.73;-79.33;Toronto;CA;ON;M3C1Z5
Jasper Royal Canadian Legion;;0;52.88;-118.08;Jasper;CA;AB;T0E 1E0
Jazz Cafe At Music Hall;700;155;42.34;-83.05;Detroit;US;MI;48226
Jazz Standard;1257;135;40.74;-73.98;New York;US;NY;10016
Jefferson Theater;1196;255;38.03;-78.48;Charlottesville;US;VA;22902
Jesse Auditorium;199;405;38.94;-92.33;Columbia;US;MO;65211
Joan C Edwards Performing Arts Center;688;38020;38.42;-82.43;Huntington;US;WV;25755
Jobing.com Arena;;20005;33.53;-112.26;Glendale;US;AZ;85305
Joe's on Weed Street;388;805;41.91;-87.65;Chicago;US;IL;60622
John Bassett Theatre - Metro Toronto Convention Centre;1094;0;43.64;-79.39;Toronto;CA;ON;M5V 2W6
John Paul Jones Arena;820;14595;38.05;-78.51;Charlottesville;US;VA;22903
Just the Funny;254;0;25.75;-80.24;Miami;US;FL;33145
Keith Albee Theater;694;1805;38.42;-82.44;Huntington;US;WV;25755
Keller Auditorium;1183;2995;45.51;-122.68;Portland;US;OR;97201
KFC Yum! Center;730;22005;38.26;-85.75;Louisville;US;KY;40202
King Avenue United Methodist Church;155;0;39.99;-83.01;Columbus;US;OH;43201
Kiva Auditorium at the Albuquerque Convention Center;961;5175;35.09;-106.65;Albuquerque;US;NM;87102
Knitting Factory;68;305;40.71;-73.96;Brooklyn;US;NY;11211
Knitting Factory Concert House;181;1505;47.66;-117.43;Spokane;US;WA;99201
Knitting Factory Concert House - Boise;1428;1005;43.66;-116.16;Boise;US;ID;83702
Knoxville Civic Auditorium;142;7145;35.97;-83.91;Knoxville;US;TN;37915
Kodak Center;926;0;43.2;-77.64;Rochester;US;NY;14604
L'Auberge Casino Resort - Lake Charles;835;175;30.21;-93.26;Lake Charles;US;LA;70601
L‚ÄôAuberge Casino & Hotel Baton Rouge;587;1555;30.35;-91.15;Baton Rouge;US;LA;70820
La Boom;72;0;40.75;-73.98;New York;US;NY;10018
La Crosse Center;802;7505;43.81;-91.26;La Crosse;US;WI;54601
Lake Charles Civic Center Arena;720;7580;30.23;-93.22;Lake Charles;US;LA;70611
Lake Charles Civic Ctr Rosa Hart Theatre;1411;7505;30.23;-93.22;Lake Charles;US;LA;70611
Landers Center;829;10005;34.93;-90;Southaven;US;MS;38671
Landmark Theatre;1000;3005;43.05;-76.15;Syracuse;US;NY;13202
Laugh Factory at the Silver Legacy Casino;1349;0;39.53;-119.81;Reno;US;NV;89501
Legacy Arena at The BJCC;690;18005;33.52;-86.81;Birmingham;US;AL;35203
Leon's Centre (formerly Rogers K-Rock Centre);632;6705;44.23;-76.48;Kingston;CA;ON;K7K 0B4
Lexington Opera House;221;880;38.05;-84.5;Lexington;US;KY;40507
Liberty Hall;385;1055;38.97;-95.24;Lawrence;US;KS;66044
Lincoln Financial Field;;68535;39.97;-75.16;Philadelphia;US;PA;19148
Lincoln Theatre;120;755;39.97;-82.98;COLUMBUS;US;OH;43203
LONDON MUSIC HALL;499;2105;42.98;-81.25;LONDON;CA;ON;N6A 1J1
Lorain Palace Theatre;1127;1725;41.47;-82.17;Lorain;US;OH;44052
Lord of Life Lutheran Church;156;0;40.09;-83.08;Columbus;US;OH;43235
Louis';856;0;52.16;-106.67;Saskatoon;CA;SK;S7R 1C4
Lovin' Cup;183;305;43.09;-77.66;Rochester;US;NY;14623
Lucas Oil Stadium;36;63005;39.76;-86.16;Indianapolis;US;IN;46225
Lucky Bar;888;205;48.43;-123.37;Victoria;CA;BC;V8W 1X7
Lyell B Clay Concert Theatre;145;1445;39.63;-79.95;Morgantown;US;WV;26506
Lynn Auditorium;269;1290;42.46;-70.95;Lynn;US;MA;1901
Lyric Theatre at the Toronto Centre for the Arts;553;1830;43.77;-79.41;Toronto;CA;ON;M2N 6R8
M Resort Spa Casino;938;2305;35.96;-115.17;Henderson;US;NV;89044
Mable House Barnes Amphitheatre;343;2405;33.83;-84.58;Mableton;US;GA;30126
Mac's Bar;127;0;42.73;-84.51;Lansing;US;MI;48912
Macgowan Hall Little Theater;225;200;34.06;-118.44;Los Angeles;US;CA;90095
Macon City Auditorium;921;2690;32.84;-83.63;Macon;US;GA;31201
Magic Bag;209;405;42.46;-83.13;Ferndale;US;MI;48220
Magic Stick;581;505;42.35;-83.06;Detroit;US;MI;48202
Mahalia Jackson Theater for the Performing Arts;139;2245;29.97;-90.06;New Orleans;US;LA;70116
Maine State Pier;;0;43.66;-70.26;Portland;US;ME;4101
Majestic Theatre;7;2265;42.35;-83.06;Detroit;US;MI;48201
Majestic Theatre Dallas;129;1705;32.78;-96.8;Dallas;US;TX;75201
Manhattan Center Hammerstein Ballroom;1;2505;40.75;-73.99;New York;US;NY;10001
Margot and Bill Winspear Opera House;1036;0;32.79;-96.8;Dallas;US;TX;75201
Marines Memorial Theatre;;0;37.79;-122.41;San Francisco;US;CA;94102
Marquis Theatre;1404;1615;40.76;-73.99;New York;US;NY;10036
Masonic Auditorium;1300;7005;41.5;-81.66;Cleveland;US;OH;44115
Masonic Cleveland Auditorium;1300;7005;41.5;-81.66;Cleveland;US;OH;44115
Masonic Temple;126;1605;42.34;-83.06;Detroit;US;MI;48201
Maui Arts & Cultural Center;1065;1205;20.89;-156.48;Kahului;US;HI;96732
Mayo Civic Center Arena;1249;7205;44.02;-92.46;Rochester;US;MN;55904
Mayo Civic Center Auditorium;1244;3405;44.02;-92.46;Rochester;US;MN;55904
McCaw Hall;1595;2895;47.62;-122.35;Seattle;US;WA;98109
McDonald Theatre;;760;44.05;-123.09;Eugene;US;OR;97401
McMorran Place Sports and Entertainment Center;316;4805;42.98;-82.43;Port Huron;US;MI;48060
McPhillips Station Casino;669;13005;49.92;-97.17;Winnipeg;CA;MB;R2X 2H2
Meadow Brook Theatre;;7005;42.68;-83.22;Rochester;US;MI;48309
Memorial Auditorium;;2505;40.81;-91.1;Burlington;US;IA;52601
Mercedes-Benz Superdome;1432;73005;29.95;-90.08;New Orleans;US;LA;70112
Mercury Lounge;1051;130;40.72;-73.99;New York;US;NY;10002
Mesquite Arena;725;5505;32.76;-96.63;Mesquite;US;TX;75149
MetLife Stadium;541;82505;40.81;-74.07;East Rutherford;US;NJ;7073
Metropolitan Theatre;207;3630;39.63;-79.96;Morgantown;US;WV;26505
Meyerhoff Symphony Hall;1226;2445;39.3;-76.62;Baltimore;US;MD;21201
Miami Dade County Auditorium;214;2430;25.77;-80.24;Miami;US;FL;33135
Miami Dade County Auditorium On.Stage Black Box;;7005;25.77;-80.24;Miami;US;FL;33135
Michigan Theater;843;1715;42.28;-83.74;Ann Arbor;US;MI;48104
Mid-America Center;754;8505;41.24;-95.89;Council Bluffs;US;IA;51501
Middle East;65;195;42.36;-71.1;Cambridge;US;MA;2139
Middle East - Corner/Bakery;4;0;42.36;-71.1;Cambridge;US;MA;2139
Middle East - Downstairs;571;580;42.36;-71.1;Cambridge;US;MA;2139
Middle East - Zuzu;12;0;42.36;-71.1;Cambridge;US;MA;2139
MIDFLORIDA Credit Union Amphitheatre at the FL State Fairgrounds;;20005;27.99;-82.36;Tampa;US;FL;33610
Miller High Life Theatre;945;4105;43.04;-87.92;Milwaukee;US;WI;53203
Mississippi Coast Coliseum;729;15005;30.39;-88.97;Biloxi;US;MS;39531
Missouri Theatre Columbia;190;1205;38.95;-92.33;Columbia;US;MO;65211
Mobile Civic Center Arena;1360;10115;30.69;-88.04;Mobile;US;AL;36602
Mobile Civic Center Theater;958;1945;30.69;-88.04;Mobile;US;AL;36602
Mod Club;596;605;43.66;-79.42;Toronto;CA;ON;M6G 1C4
Moda Center;779;3005;45.53;-122.67;Portland;US;OR;97227
Mohegan Sun Arena;785;12005;41.49;-72.09;Uncasville;US;CT;6382
Mohegan Sun Arena at Casey Plaza;778;10505;41.24;-75.85;Wilkes-Barre;US;PA;18702
Molly Malones;205;205;34.07;-118.36;Los Angeles;US;CA;90036
MontBleu Resort Casino & Spa;574;1510;38.96;-119.94;South Lake Tahoe;US;NV;89449
Montgomery Performing Arts Centre;423;1805;32.38;-86.31;Montgomery;US;AL;36104
Moore Theatre;386;2440;47.61;-122.34;Seattle;US;WA;98101
Morgan State University;969;0;39.35;-76.59;Baltimore;US;MD;21251
Morgan State University - Murphy Fine Arts Center;;2040;39.34;-76.58;Baltimore;US;MD;21251
Morongo Casino Resort and Spa;566;1105;33.92;-116.81;Cabazon;US;CA;92230
Mr. Smalls Theatre;365;655;40.48;-79.97;Millvale;US;PA;15209
Mulcahy's Pub and Concert Hall;;1205;40.67;-73.51;Wantagh;US;NY;11793
Murat Theatre at Old National Centre;449;2605;39.77;-86.15;Indianapolis;US;IN;46204
Music Hall At Fair Park;250;3425;32.78;-96.77;Dallas;US;TX;75210
Music Hall Center;707;1735;42.34;-83.05;Detroit;US;MI;48226
Music Hall Kansas City;1038;2405;39.1;-94.59;Kansas City;US;MO;64105
Musica;406;305;41.08;-81.52;Akron;US;OH;44308
Mystic Lake Casino Hotel;179;2105;44.73;-93.47;Prior Lake;US;MN;55372
Nashville Municipal Auditorium;949;9435;36.17;-86.78;Nashville;US;TN;37201
Nationwide Arena;736;20505;39.97;-83.01;Columbus;US;OH;43215
Neal S Blaisdell Arena;1335;8805;21.3;-157.85;Honolulu;US;HI;96814
Neal S Blaisdell Concert Hall;353;2160;21.3;-157.85;Honolulu;US;HI;96814
Nectar Lounge;1192;355;47.65;-122.35;Seattle;US;WA;98107
Neil Simon Theatre;;1450;40.76;-73.98;New York;US;NY;10019
Neptune Theatre;215;480;47.66;-122.31;Seattle;US;WA;98105
Neurolux Lounge;180;0;43.62;-116.21;Boise;US;ID;83702
New Holland Training Centre;;0;52.2;-106.68;Saskatoon;CA;SK;S7R 1B5
New Jersey Performing Arts Center;405;3355;40.74;-74.17;Newark;US;NJ;7102
Newark Symphony Hall;;2705;40.73;-74.18;Newark;US;NJ;7102
Newmark Theatre;226;885;45.52;-122.68;Portland;US;OR;97201
Newport Music Hall;350;1705;40;-83.01;Columbus;US;OH;43201
Nile Theater;978;855;32.55;-117.04;Mesa;US;AZ;85201
NMSU Pan American Center;41;13075;32.27;-106.79;Las Cruces;US;NM;88003
North Seventh - formerly Electric Factory;153;3005;39.96;-75.15;Philadelphia;US;PA;19123
Northern Alberta Jubilee Auditorium;1013;2515;53.52;-113.53;Edmonton;CA;AB;T6G 2T2
Notre Dame Stadium;796;0;41.69;-86.23;South Bend;US;IN;46556
NYCB LIVE, Home of The Nassau Veterans Memorial Coliseum;765;16235;40.72;-73.59;Uniondale;US;NY;11553
NYCB Theatre at Westbury;933;3005;40.78;-73.56;Westbury;US;NY;11590
Oakland Alameda County Coliseum;;62505;37.75;-122.2;Oakland;US;CA;94621
OC Inlet Parking Lot;1037;1205;38.37;-75.07;Ocean City;US;MD;21842
Ocean Center;972;9005;29.23;-81.01;Daytona Beach;US;FL;32118
Oceanfront Bandshell;1178;0;29.23;-81.01;Daytona Beach;US;FL;32118
Ohio State Roy Bowen Theatre, Drake Center;95;0;41.43;-81.53;Columbus;US;OH;43210
Ohio State Thurber Theatre, Drake Center;77;605;39.99;-83.01;Columbus;US;OH;43210
Ohio Theatre;934;1005;39.96;-83;Columbus;US;OH;43215
Old National Events Plaza;447;2505;37.97;-87.57;Evansville;US;IN;47708
One Eyed Jacks;413;405;29.96;-90.06;New Orleans;US;LA;70130
Opera House;;855;43.66;-79.35;Toronto;CA;ON;M4M 1H1
Oracle Arena;780;19205;37.75;-122.2;Oakland;US;CA;94621
Oriental Theatre Chicago;143;2255;41.88;-87.63;Chicago;US;IL;60601
Orleans Arena;371;9040;36.1;-115.2;Las Vegas;US;NV;89103
Orpheum;;725;27.96;-82.44;Tampa;US;FL;33605
Orpheum Theater;300;705;43.08;-89.39;Madison;US;WI;53703
Orpheum Theater Omaha;1254;0;41.26;-95.94;Omaha;US;NE;68101
Orpheum Theatre;791;2805;42.36;-71.06;Boston;US;MA;2108
Orpheum Theatre;791;2805;42.36;-71.06;Boston;US;MA;2108
Orpheum Theatre;791;2805;42.36;-71.06;Boston;US;MA;2108
Orpheum Theatre;791;2805;42.36;-71.06;Boston;US;MA;2108
Ovation Hall at Ocean Resort Casino;1230;5505;39.36;-74.41;Atlantic City;US;NJ;8401
Pabst Theater;1253;340;43.04;-87.91;Milwaukee;US;WI;53203
Palace of Fine Arts;377;1005;37.8;-122.45;San Francisco;US;CA;94123
Palace Theatre;1312;0;40.3;-79.54;Greensburg;US;PA;15601
Palace Theatre Columbus;401;2830;39.96;-83;Columbus;US;OH;43215
Palais Royale;1271;805;43.64;-79.45;Toronto;CA;ON;M6K 3C1
Palazzo Theatre at the Palazzo Las Vegas;;0;36.12;-115.17;Las Vegas;US;NV;89109
Pantages Theatre;392;1025;44.98;-93.27;Minneapolis;US;MN;55403
Paradise Rock Club;410;935;42.35;-71.12;Boston;US;MA;2215
Paragon Casino Resort;1331;2505;31.11;-92.06;Marksville;US;LA;71351
Paramount Theatre;445;3005;47.61;-122.33;Seattle;US;WA;98101
Paramount Theatre;445;3005;47.61;-122.33;Seattle;US;WA;98101
Paramount Theatre;445;3005;47.61;-122.33;Seattle;US;WA;98101
Paramount Theatre-Oakland;798;3480;37.81;-122.27;Oakland;US;CA;94612
Park Street Theatre;;405;39.97;-83;Columbus;US;OH;43215
Parker Playhouse;216;1170;26.13;-80.14;Ft Lauderdale;US;FL;33304
Patriot Center;459;10205;38.83;-77.31;Fairfax;US;VA;22030
Pearl Concert Theater at Palms Casino Resort;458;255;36.12;-115.2;Las Vegas;US;NV;89103
Pechanga Resort and Casino;256;1205;33.46;-117.11;Temecula;US;CA;92592
Penn's Peak;325;1405;40.9;-75.69;Jim Thorpe;US;PA;18229
Pensacola Bay Center;285;9455;30.42;-87.21;Pensacola;US;FL;32502
Pensacola Saenger Theatre;930;1785;30.41;-87.22;Pensacola;US;FL;32501
Peoria Civic Center;692;12005;40.69;-89.59;Peoria;US;IL;61602
Pepsi Center;777;18655;39.75;-105.01;Denver;US;CO;80204
Petersen Events Center;1402;12005;40.44;-79.96;Pittsburgh;US;PA;15261
PHILANTHROPY THEATRE;701;0;31.76;-106.49;EL PASO;US;TX;79901
Philips Arena;;20005;33.76;-84.4;Atlanta;US;GA;30303
Pike Room @ The Crofoot;113;255;42.64;-83.29;Pontiac;US;MI;48342
Pinnacle Bank Arena;1450;14970;40.82;-96.71;Lincoln;US;NE;68508
PNC Bank Arts Center;1417;17505;40.39;-74.18;Holmdel;US;NJ;7733
PNC Field;;10385;41.36;-75.68;Moosic;US;PA;18507
Ponte Vedra Concert Hall;940;905;30.17;-81.37;Ponte Vedra Beach;US;FL;32082
Poolside at Hard Rock Hotel & Casino Las Vegas;;4005;36.11;-115.15;Las Vegas;US;NV;89169
Pops;70;1505;38.6;-90.18;Sauget;US;IL;62201
Port City Music Hall;219;0;43.66;-70.26;Portland;US;ME;4101
Potawatomi Hotel & Casino/Northern Lights Theater/Event Center;558;505;43.03;-87.93;Milwaukee;US;WI;53202
PPG Paints Arena;442;18505;40.44;-79.99;Pittsburgh;US;PA;15219
Prudential Center;742;17505;40.73;-74.17;Newark;US;NJ;7102
Punch Line Comedy Club - Sacramento;193;245;38.6;-121.42;Sacramento;US;CA;95825
Punch Line Comedy Club - San Francisco;572;185;37.8;-122.4;San Francisco;US;CA;94111
Queen Elizabeth Theatre;628;2785;49.28;-123.11;Vancouver;CA;BC;V6B 2P1
Queen Elizabeth Theatre;628;2785;49.28;-123.11;Vancouver;CA;BC;V6B 2P1
Quicken Loans Arena;739;20755;41.5;-81.69;Cleveland;US;OH;44115
Raising Cane‚Äôs River Center Arena;753;8905;30.44;-91.19;Baton Rouge;US;LA;70802
Raley Field;481;18005;38.58;-121.51;West Sacramento;US;CA;95691
Ralph Engelstad Arena;831;12005;47.92;-97.08;Grand Forks;US;ND;58202
Ralph Freud Playhouse;224;585;34.1;-118.29;Los Angeles;US;CA;90024
Rapides Coliseum;1241;6515;31.3;-92.5;Alexandria;US;LA;71301
Raymond James Stadium;;65850;27.98;-82.5;Tampa;US;FL;33607
RBC Echo Beach;;5005;43.63;-79.42;Toronto;CA;ON;M6K 3L3
RBC Theatre at Budweiser Gardens;546;0;42.98;-81.25;London;CA;ON;N6A 6K1
Reardon Auditorium;706;2205;40.11;-85.67;Anderson;US;IN;46012
REBEL;668;3235;43.64;-79.35;Toronto;CA;ON;M5A 1A4
Reno Ballroom;806;2905;39.53;-119.81;Reno;US;NV;89501
Reno Events Center;1016;7505;39.53;-119.81;Reno;US;NV;89501
Reno-Sparks Livestock Events Center;;6205;39.54;-119.8;Reno;US;NV;89512
Resch Center;755;10505;44.5;-88.06;Green Bay;US;WI;54304
Revolution Live;946;1000;26.12;-80.15;Ft Lauderdale;US;FL;33312
Rhode Island Convention Center;394;9005;41.82;-71.42;Providence;US;RI;2903
Rialto Square Theatre;317;1970;41.53;-88.08;Joliet;US;IL;60432
Richmond Coliseum;792;13005;37.54;-77.43;Richmond;US;VA;23219
RICKSHAW THEATRE;604;605;49.28;-123.1;VANCOUVER;CA;BC;V6A 1P1
Riot Room;;305;39.05;-94.59;Kansas City;US;MO;64111
Rising Star Casino Resort;124;1145;38.96;-84.85;Rising Sun;US;IN;47040
Ritz Theatre;679;425;30.33;-81.67;Jacksonville;US;FL;32202
River City Casino & Hotel;935;0;38.54;-90.27;St Louis;US;MO;63125
River Cree Resort & Casino;966;0;53.51;-113.69;Enoch;CA;AB;T7X 3Y3
River Rock Casino Resort;523;1005;49.19;-123.13;Richmond;CA;BC;V6X 3P8
Riverdome at Horseshoe Casino & Hotel - Bossier City;918;0;32.52;-93.74;Bossier City;US;LA;71111
Riverside Municipal Auditorium;936;0;33.98;-117.37;Riverside;US;CA;92501
Robinson Performance Hall;570;2610;34.75;-92.27;Little Rock;US;AR;72201
Rochester Auditorium Theatre;232;2905;43.16;-77.59;Rochester;US;NY;14605
Rocks Off Walking Tour;1179;405;40.78;-73.94;New York;US;NY;10010
Rogers Arena;1250;20765;49.28;-123.11;Vancouver;CA;BC;V6B 6G1
Ronald Reagan Building and International Trade Center;1342;705;38.9;-77.03;Washington;US;DC;20004
Rose & Alfred Miniaci Performing Arts Center;836;0;26.09;-80.25;Ft Lauderdale;US;FL;33314
Rosemont Theatre;455;4405;41.98;-87.86;Rosemont;US;IL;60018
Royal Ontario Museum - Peter F. Bronfman Hall;;0;43.67;-79.39;Toronto;CA;ON;M5S2C6
Royale Boston;989;1005;42.35;-71.07;Boston;US;MA;2116
Royce Hall - UCLA;1541;1835;34.07;-118.45;Los Angeles;US;CA;90095
Rum Runners;491;0;45.45;-75.65;London;CA;ON;N6A 1G7
RUMBA CAFE;60;255;40.01;-83;COLUMBUS;US;OH;43202
Rupp Arena;280;23505;38.05;-84.5;Lexington;US;KY;40507
Ryman Auditorium;803;2505;36.16;-86.78;Nashville;US;TN;37219
S.O.B.'s;66;455;40.73;-74.01;New York;US;NY;10014
Saenger Theatre Mobile;937;1925;30.69;-88.04;Mobile;US;AL;36602
Saenger Theatre New Orleans;814;0;29.96;-90.07;New Orleans;US;LA;70112
Saint Andrews Hall;638;805;42.33;-83.04;Detroit;US;MI;48226
Salem Civic Center;1138;8005;37.29;-80.04;Salem;US;VA;24153
San Diego Civic Theatre;29;2970;32.72;-117.16;San Diego;US;CA;92101
San Jose Center for the Performing Arts;953;2670;37.33;-121.89;San Jose;US;CA;95113
San Jose Civic;;3005;37.33;-121.89;San Jose;US;CA;95113
Sandler Center For The Performing Arts;962;1205;36.84;-76.13;VIRGINIA BEACH;US;VA;23462
Sandman Centre;1334;6805;50.68;-120.33;Kamloops;CA;BC;V2C 1W3
Sands Bethlehem Event Center;302;3505;40.61;-75.36;Bethlehem;US;PA;18015
SAP Center;959;20005;37.33;-121.9;San Jose;US;CA;95113
Saratoga Performing Arts Center;;25005;43.06;-73.81;Saratoga Springs;US;NY;12866
SaskTel Centre;613;16505;52.19;-106.68;Saskatoon;CA;SK;S7R 1C4
Save Mart Center;776;16005;36.81;-119.74;Fresno;US;CA;93710
Scheels Arena;1258;5005;46.84;-96.88;Fargo;US;ND;58104
Schermerhorn Symphony Center;941;0;36.16;-86.78;Nashville;US;TN;37201
Schottenstein Center;845;20005;40.01;-83.02;Columbus;US;OH;43210
Scotiabank Arena;611;19805;43.64;-79.38;Toronto;CA;ON;M5J 2L2
Scotiabank Saddledome;626;17105;51.04;-114.05;Calgary;CA;AB;T2G 2W1
Scottish Rite Auditorium;1022;1005;39.91;-75.08;Collingswood;US;NJ;8108
Scranton Cultural Center;662;705;41.41;-75.66;Scranton;US;PA;18503
Scullers Jazz Club;1215;205;42.36;-71.12;Boston;US;MA;2134
Seminole Casino Coconut Creek;438;1205;26.28;-80.2;Coconut Creek;US;FL;33073
Senator Theatre;824;0;39.73;-121.84;Chico;US;CA;95928
Seneca Niagara Resort & Casino Bears Den;1132;445;43.09;-79.06;Niagara Falls;US;NY;14303
Seneca Niagara Resort & Casino Event Center;564;2405;43.09;-79.06;Niagara Falls;US;NY;14303
Shank Hall;361;305;43.05;-87.9;Milwaukee;US;WI;53202
Shaw Conference Centre;860;4505;53.54;-113.49;Edmonton;CA;AB;T5J 1N9
Shea's Performing Arts Center;289;3705;42.89;-78.87;Buffalo;US;NY;14202
Shoreline Amphitheatre at Mountain View;;22005;37.43;-122.08;Mountain View;US;CA;94043
Showplace;;0;44.3;-78.32;Peterborough;CA;ON;K9J 6Y8
Shreveport Municipal Memorial Auditorium;1235;3005;32.51;-93.75;Shreveport;US;LA;71101
Silver Creek Event Center at Four Winds New Buffalo;293;405;41.78;-86.71;New Buffalo;US;MI;49117
Silver Legacy Casino;1141;7505;39.53;-119.82;Reno;US;NV;89505
Silver Spurs Arena At Osceola Heritage Park;;11005;28.3;-81.37;Kissimmee;US;FL;34744
Silverstein Eye Centers Arena;828;7005;39.04;-94.36;Independence;US;MO;64055
Sixth & I Historic Synagogue;424;805;38.9;-77.02;Washington;US;DC;20001
Skagit Valley Casino Pacific Showroom;708;0;48.56;-122.35;Bow;US;WA;98232
Skippers Smokehouse;54;0;28.08;-82.45;Tampa;US;FL;33613
Skullys Music Diner;656;555;39.99;-83.01;Columbus;US;OH;43201
Sleep Train Pavilion at Concord;;12505;37.96;-121.94;Concord;US;CA;94521
Smith Theatre;1146;425;42.89;-78.87;Buffalo;US;NY;14202
Smoothie King Center;787;18005;29.95;-90.08;New Orleans;US;LA;70113
SNHU Arena;784;11805;42.99;-71.46;Manchester;US;NH;3101
Soma;89;2905;32.75;-117.21;San Diego;US;CA;92110
Somerville Theatre;;905;42.4;-71.12;Somerville;US;MA;2144
Sony Centre for the Performing Arts;608;3195;43.65;-79.38;Toronto;CA;ON;M5E 1B2
Soul Kitchen;1083;1005;30.69;-88.04;Mobile;US;AL;36602
Sound Board at MotorCity Casino Hotel;853;1505;42.34;-83.07;Detroit;US;MI;48201
South Side Ballroom;411;3005;32.76;-96.77;Dallas;US;TX;75215
Southern Alberta Jubilee Auditorium;1012;2540;51.06;-114.09;Calgary;CA;AB;T2N 1M4
Southern Theatre;437;1905;39.96;-83;Columbus;US;OH;43215
Spanish Moon;1295;405;30.44;-91.19;Baton Rouge;US;LA;70802
Speaker Jo Ann Davidson Theatre (formerly Capitol Theatre);228;305;39.96;-83;Columbus;US;OH;43215
Spreckels Theatre;1098;1920;32.72;-117.16;San Diego;US;CA;92101
Sprint Center;772;0;39.1;-94.57;Kansas City;US;MO;64106
St Augustine Amphitheatre;686;4095;29.88;-81.28;St Augustine;US;FL;32084
St. George Theatre;427;2805;40.64;-74.08;Staten Island;US;NY;10301
STAGE AE;342;7905;40.45;-80.01;Pittsburgh;US;PA;15212
Star Of The Desert Arena at Primm Valley Resorts;1318;6505;35.62;-115.39;Primm;US;NV;89019
State Street;;0;43.07;-89.4;Madison;US;WI;53713
State Theatre;137;2185;44.98;-93.28;Minneapolis;US;MN;55402
State Theatre;137;2185;44.98;-93.28;Minneapolis;US;MN;55402
State Theatre, Kalamazoo;334;1580;42.29;-85.58;Kalamazoo;US;MI;49002
Stephens Auditorium;247;2640;42.02;-93.64;Ames;US;IA;50011
Stiefel Theatre;45;1290;38.84;-97.61;Salina;US;KS;67401
Stifel Theatre;443;3105;38.63;-90.2;St. Louis;US;MO;63103
Stockton Arena;1017;12005;37.96;-121.3;Stockton;US;CA;95203
Strummer's;18;0;36.76;-119.8;Fresno;US;CA;93728
Studio Theatre at the Toronto Centre for the Arts;1251;205;43.77;-79.41;Toronto;CA;ON;M2N 6R8
Subterranean;81;380;41.91;-87.68;Chicago;US;IL;60647
Summit;;905;39.75;-105;Denver;US;CO;80202
Sun Bowl Stadium;;50845;31.77;-106.51;El Paso;US;TX;79902
Sun Devil Stadium;;0;33.43;-111.93;Tempe;US;AZ;85281
Sunset Tavern;14;0;47.67;-122.39;Seattle;US;WA;98107
Swiftel Center;830;7005;44.31;-96.75;Brookings;US;SD;57006
Tabernacle presented by Cricket Wireless;676;2605;33.76;-84.39;Atlanta;US;GA;30303
Tacoma Dome;47;22505;47.24;-122.43;Tacoma;US;WA;98421
Taft Theatre;251;2505;39.1;-84.51;Cincinnati;US;OH;45202
Talking Stick Resort;682;1605;33.54;-111.87;Scottsdale ;US;AZ;85256
TaxSlayer Center;277;12005;41.51;-90.52;Moline;US;IL;61265
Tbaal Room T 314;1062;0;32.77;-96.8;Dallas;US;TX;75201
TCC Exhibition Hall;985;0;32.22;-110.97;Tucson;US;AZ;85701
TCC Leo Rich Theatre - Tucson;884;515;32.22;-110.97;Tucson;US;AZ;85701
TD Garden;746;19585;42.37;-71.06;Boston;US;MA;2114
Tennessee Theatre;433;1635;35.96;-83.92;Knoxville;US;TN;37902
Terrace Theater - Long Beach Convention and Entertainment Center;1059;3055;33.77;-118.19;Long Beach;US;CA;90802
Thalia Mara Hall;1032;2365;32.3;-90.19;Jackson;US;MS;39216
The Annex Wreckroom;1153;0;43.67;-79.41;Toronto;CA;ON;M5R 3G1
The Arena at Southeastern KY Agricultural and Expo Complex;846;7005;36.91;-84.12;Corbin;US;KY;40701
The Athenaeum;366;0;39.77;-86.15;Indianapolis;US;IN;46204
The Basement;73;105;39.97;-83.01;Columbus;US;OH;43215
The Belasco Theater;957;0;34.04;-118.26;Los Angeles;US;CA;90015
The Bowery Electric;1057;205;40.73;-73.99;New York;US;NY;10012
The Brighton Bar;1090;285;40.21;-74.26;Long Branch;US;NJ;7728
The Bug Jar;533;0;41.1;-80.65;Rochester;US;NY;14607-3527
The Bull & Barrel;;0;42.31;-83.04;Windsor;CA;ON;N9a 1b9
The Canyon;128;1000;34.14;-118.75;Agoura Hills;US;CA;91301
The Cathedral Sanctuary at Immanuel Presbyterian;333;0;34.06;-118.29;Los Angeles;US;CA;90010
The Centre in Vancouver;483;1840;49.28;-123.12;Vancouver;CA;BC;V6B 2W1
The Chance;103;0;41.7;-73.92;Poughkeepsie;US;NY;12601
The Chicago Theatre;376;3605;41.89;-87.63;Chicago;US;IL;60601
The Club at Stage AE;403;5505;40.45;-80.01;Pittsburgh;US;PA;15212
The Colosseum at Caesars Windsor;1044;5005;42.32;-83.04;Windsor;CA;ON;N9A 7H7
The Comedy Shrine;677;0;41.76;-88.22;Aurora;US;IL;60504
The Cosmopolitan of Las Vegas;462;3005;36.11;-115.17;Las Vegas;US;NV;89109
The Cove;;0;41.86;-80.95;Geneva on the Lake;US;OH;44041
The Crepe Place;131;105;36.98;-122.01;Santa Cruz;US;CA;95062
The Crofoot Ballroom;480;1105;42.64;-83.29;Pontiac;US;MI;48342
The Danforth Music Hall;554;1505;43.68;-79.36;Toronto;CA;ON;M4K 1N2
The Dome at America's Center;;66005;38.63;-90.19;St Louis;US;MO;63101
The Federal Bar;162;255;34.17;-118.38;North Hollywood;US;CA;91601
The Fillmore;354;1255;37.78;-122.43;San Francisco;US;CA;94115
The Fillmore Detroit presented by Cricket Wireless;322;2205;42.46;-83.21;Detroit;US;MI;48201
The Fillmore Miami Beach at Jackie Gleason Theater;590;2465;25.79;-80.13;Miami Beach;US;FL;33139
The Fillmore Silver Spring presented by Cricket Wireless;636;2005;39;-77.03;Silver Spring;US;MD;20910
The Forum;721;17505;33.96;-118.34;Inglewood;US;CA;90305
The Fox Theater at Foxwoods Resort Casino;825;1405;41.47;-71.96;Mashantucket;US;CT;6355
The Gateway (SAIT);514;470;51.07;-114.09;Calgary;CA;AB;T2M 0L4
The Grand Theater at Foxwoods Resort Casino;923;4005;41.48;-71.96;Mashantucket;US;CT;6355
The Great Hall;607;1305;43.64;-79.42;Toronto;CA;ON;M6J 1H3
The Horseshoe Tavern;683;405;43.65;-79.4;Toronto;CA;ON;M5V 2A2
The Intersection;1069;0;42.96;-85.67;Grand Rapids;US;MI;49503
The Kenner Pontchartrain Center;;4005;30.04;-90.24;Kenner;US;LA;70065
The Loft;655;0;41.7;-73.92;Poughkeepsie;US;NY;12601
The Louisville Palace presented by Cricket Wireless;944;2705;38.25;-85.76;Louisville;US;KY;40202
The Loving Touch;96;355;42.46;-83.13;Ferndale;US;MI;48220
The Lyric;229;2565;39.31;-76.62;Baltimore;US;MD;21201
The Mahaffey Theater;1113;1115;27.77;-82.63;St Petersburg;US;FL;33701
The Masonic;952;3170;37.79;-122.41;San Francisco;US;CA;94108
The Masquerade;122;4005;33.77;-84.36;Atlanta;US;GA;30303
The Metropolitan Entertainment Centre;630;0;49.89;-97.14;Winnipeg;CA;MB;R3C 1M9
The Mint;660;0;34.05;-118.37;Los Angeles;US;CA;90035
The Museum at Bethel Woods;112;135;41.7;-74.88;Bethel;US;NY;12720
The Observatory;42;555;33.7;-117.92;Santa Ana;US;CA;92704
The Oncenter Crouse Hinds Theater;674;2120;43.05;-76.15;Syracuse;US;NY;13202
The Oncenter War Memorial Arena;1399;6160;43.04;-76.15;Syracuse;US;NY;13202
The Opera House;859;855;43.66;-79.35;Toronto;CA;ON;M4M 1H1
The Orpheum Theatre Memphis;842;2365;35.14;-90.06;Memphis;US;TN;38103
The Pageant;556;2005;38.66;-90.3;St Louis;US;MO;63112
The Palace Theatre (Formerly Flames Central);519;1405;51.05;-114.07;Calgary;CA;AB;T2P 1B7
The Palace Theatre Albany;305;2845;42.65;-73.75;Albany;US;NY;12207
The Paley Center for Media;865;0;40.76;-73.98;New York;US;NY;10019
The Paramount;288;3045;40.87;-73.43;Huntington;US;NY;11743
The Peabody Daytona Beach;999;2525;29.23;-81.01;Daytona Beach;US;FL;32118
The Phoenix Concert Theatre;898;1105;43.66;-79.37;Toronto;CA;ON;M4X 1K2
The Plaza Theatre Performing Arts Center;321;2005;31.76;-106.49;El Paso;US;TX;79901
The Pyramid Scheme;102;425;42.96;-85.67;Grand Rapids;US;MI;49506
The Record Bar;1267;255;39.05;-94.6;Kansas City;US;MO;64108
The Ritz Ybor;1039;1115;27.96;-82.44;Tampa;US;FL;33675
The Rivoli;981;205;43.65;-79.39;Toronto;CA;ON;M5V 2A2
The Rockpile;522;355;43.63;-79.55;Toronto;CA;ON;M9B 1B8
The Royal Theatre;;0;43.66;-79.41;Toronto;CA;ON;M6G 1A1
The Saban;243;1900;34.06;-118.37;Beverly Hills;US;CA;90211
The Saint;8;155;40.22;-74.01;Asbury Park;US;NJ;7712
The Sanford Center;1238;6005;47.47;-94.88;Bemidji;US;MN;56601
The Santander Performing Arts Center;927;1820;40.34;-75.93;Reading;US;PA;19601
The Second City;982;345;43.65;-79.39;Toronto;CA;ON;M5V 9G9
The Shelter;283;230;42.33;-83.04;Detroit;US;MI;48226
The Smith Center;1115;5005;36.17;-115.15;Las Vegas;US;NV;89102
The Soraya (The Valley's Center for the Performing Arts);1229;1705;34.24;-118.53;Northridge;US;CA;91330
The Southgate House Revival - Revival Room;63;0;39.09;-84.49;Newport;US;KY;41071
The Southgate House Revival - The Sanctuary;419;0;39.09;-84.49;Newport;US;KY;41071
The Stanley;864;2905;43.1;-75.24;Utica;US;NY;13501
The Starlite Room;1211;555;53.54;-113.5;Edmonton;CA;AB;T5J 0V6
The Stone Pony;646;805;40.22;-74;Asbury Park;US;NJ;7712
The Studio (Formerly The Studio at Hamilton Place);597;555;43.26;-79.87;Hamilton;CA;ON;L8P 4Y3
The Thompson House;678;405;39.09;-84.5;Newport ;US;KY;41071
The Token Lounge;536;405;42.35;-83.33;Westland;US;MI;48185
THE VENUE AT UCF;664;10005;28.61;-81.19;Orlando;US;FL;32816
The Wellmont Theater;303;0;40.81;-74.22;Montclair;US;NJ;7042
The Wharf Amphitheater;821;10005;30.29;-87.59;Orange Beach;US;AL;36561
The Wiltern;673;1855;34.06;-118.31;Los Angeles;US;CA;90010
The Wonder Bar;57;2005;40.22;-74;Asbury Park;US;NJ;7712
Theatre of Living Arts;337;1005;39.94;-75.15;Philadelphia;US;PA;19147
This Ain't Hollywood;1172;0;43.27;-79.87;Hamilton;CA;ON;L8L 1H3
TIAA Bank Field;;76870;30.33;-81.64;Jacksonville;US;FL;32202
TIFF Bell Lightbox;506;0;43.65;-79.39;Toronto;CA;ON;M5V 3X5
Tilles Center - Krasnoff Theater;1056;495;40.81;-73.62;Brookville;US;NY;11548
Tilson Auditorium;;2605;39.48;-87.41;Terre Haute;US;IN;47809
Times Union Center;760;17005;42.65;-73.75;Albany;US;NY;12207
Times-Union Center for the Performing Arts - Jacoby Hall;712;1725;30.33;-81.66;Jacksonville;US;FL;32202
Times-Union Center for the Performing Arts - Moran Theater;318;3005;30.33;-81.66;Jacksonville;US;FL;32202
Tingley Coliseum;;11575;35.08;-106.57;Albuquerque;US;NM;87110
Tip Top Deluxe Bar & Grill;17;0;42.96;-85.69;Grand Rapids;US;MI;49504
Tipitinas;87;1005;29.92;-90.1;New Orleans;US;LA;70118
Tivoli Theatre;726;505;35.05;-85.31;Chattanooga;US;TN;37402
Toby's Dinner Theatre Columbia;1429;330;39.21;-76.86;Columbia;US;MD;21044
Topeka Performing Arts Center;415;2450;39.05;-95.67;Topeka;US;KS;66603
Tower Theater presented by Cricket Wireless;306;3120;39.96;-75.26;Upper Darby;US;PA;19082
Town Hall;373;1505;40.76;-73.98;New York;US;NY;10036
Toyota Amphitheatre;;18505;39.03;-121.51;Wheatland;US;CA;95692
Toyota Center Kennewick;1233;6005;46.22;-119.22;Kennewick;US;WA;99336
Toyota Oakdale Theatre;922;5005;41.45;-72.85;Wallingford;US;CT;6492
Tractor Tavern;91;425;47.67;-122.38;Seattle;US;WA;98107
Tralf;132;750;42.89;-78.87;Buffalo;US;NY;14202
Tribute Communities Centre;545;6105;43.9;-78.85;Oshawa;CA;ON;L1H 1J8
Tropicana Las Vegas;875;2705;36.1;-115.17;Las Vegas;US;NV;89119
Tropicana Showroom;1108;2005;39.41;-74.45;Atlantic City;US;NJ;8401
Troubadour;1163;505;34.08;-118.39;West Hollywood;US;CA;90069
Tsongas Center at UMass Lowell;;0;42.65;-71.31;Lowell;US;MA;1852
Tucson Arena;983;8965;32.22;-110.97;Tucson;US;AZ;85701
Tucson Music Hall;44;9280;32.22;-110.97;Tucson;US;AZ;85701
Tulalip Resort Casino;348;3005;48.09;-122.19;Tulalip;US;WA;98271
Turning Stone Resort Casino Event Center;904;0;43.11;-75.59;Verona;US;NY;13478
Turning Stone Resort Casino Showroom;1010;0;43.11;-75.59;Verona;US;NY;13478
Twin River Event Center;994;1005;41.89;-71.45;Lincoln;US;RI;2865
U.S. Bank Arena;763;17095;39.1;-84.5;Cincinnati;US;OH;45202
U.S. Bank Stadium;897;64040;44.97;-93.26;Minneapolis;US;MN;55415
U.S. Cellular Center;1167;8605;41.98;-91.67;Cedar Rapids;US;IA;52401
U.S. Cellular Stage at the Bijou Theatre;352;705;35.96;-83.92;Knoxville;US;TN;37902
UBC - Doug Mitchell Thunderbird Sports Centre;1015;7205;49.26;-123.24;Vancouver;CA;BC;V6T 1Z3
Uihlein Hall Marcus Center;355;2310;43.04;-87.91;Milwaukee;US;WI;53202
Ulster Performing Arts Center;901;1505;41.93;-74;Kingston;US;NY;12401
United Center;748;23005;41.88;-87.67;Chicago;US;IL;60612
United Palace;475;3295;40.85;-73.94;New York;US;NY;10033
United Wireless Arena;;5505;37.76;-100.06;Dodge City;US;KS;67801
University at Buffalo - Alumni Arena;1102;1005;43;-78.78;Buffalo;US;NY;14260
University of Delaware;;22005;39.66;-75.76;Newark;US;DE;19716
University of Phoenix Stadium;1559;63405;33.53;-112.26;Glendale;US;AZ;85305
Universoul Circus - Fairmount Park;639;0;39.98;-75.21;Philadelphia;US;PA;19131
UNO Lakefront Arena;1245;10005;30.03;-90.05;New Orleans;US;LA;70122
Upstate Concert Hall;351;0;42.87;-73.82;Clifton Park;US;NY;12065
Uptown Theater;390;2405;39.06;-94.59;Kansas City;US;MO;64111
US Airways Center;;19005;33.45;-112.07;Phoenix;US;AZ;85004
USF Concert Hall;651;10415;28.06;-82.41;Tampa;US;FL;33620
USF Theatre 1;652;20005;28.06;-82.41;Tampa;US;FL;33620
USF Theatre 2;;305;28.06;-82.41;Tampa;US;FL;33620
UTEP Dinner Theatre;723;0;31.77;-106.51;El Paso;US;TX;79968
Val Air Ballroom;2;2705;41.59;-93.71;West Des Moines;US;IA;50265
Van Andel Arena;734;12005;42.96;-85.67;Grand Rapids;US;MI;49503
Varsity Theater;428;555;44.98;-93.24;Minneapolis;US;MN;55414
Varsity Theatre;880;805;30.42;-91.18;Baton Rouge;US;LA;70802
Velvet Underground;909;0;43.65;-79.4;Toronto;CA;ON;M5V 2B3
Venetian Theatre at the Venetian Las Vegas;1315;0;36.12;-115.17;Las Vegas;US;NV;89109
Venue;517;0;49.28;-123.12;Vancouver;CA;BC;V6Z 1K7
Verizon Arena;818;18005;34.75;-92.26;North Little Rock;US;AR;72114
Verizon Center;326;20505;38.9;-77.02;Washington;US;DC;20004
Verizon Center;326;20505;38.9;-77.02;Washington;US;DC;20004
Victory Theatre;1133;505;37.97;-87.57;Evansville;US;IN;47708
Viejas Arena at Aztec Bowl San Diego State University;1109;12415;32.78;-117.07;San Diego;US;CA;92182
Vinyl at Hard Rock Hotel & Casino Las Vegas;928;655;36.11;-115.15;Las Vegas;US;NV;89169
Viper Room;1314;255;34.09;-118.38;West Hollywood;US;CA;90069
Visa Screening Room at Princess of Wales Theatre;510;0;43.65;-79.39;Toronto;CA;ON;M5V 1J2
Vivint Smart Home Arena;757;20405;40.77;-111.9;Salt Lake City;US;UT;84101
Von Braun Center Arena;51;10005;34.73;-86.59;Huntsville;US;AL;35801
Von Braun Center Concert Hall;309;13765;34.73;-86.59;Huntsville;US;AL;35801
VooDoo Lounge at Harrah's Casino North Kansas City;929;0;39.14;-94.55;Kansas City;US;MO;64116
Wagner Noel Performing Arts Center;1067;0;31.97;-102.25;Midland;US;TX;79707
Wally's Pub;1202;755;42.9;-70.81;Hampton;US;NH;3842
Walnut Street Theatre;657;1055;39.95;-75.16;Philadelphia;US;PA;19107
WaMu Theater;457;7195;47.6;-122.33;Seattle;US;WA;98134
Warner Theatre;812;1850;38.9;-77.03;Washington;US;DC;20004
Warsaw;262;930;40.72;-73.95;Brooklyn;US;NY;11222
Webster Bank Arena;1401;10005;41.17;-73.19;Bridgeport;US;CT;6604
Wells Fargo Center;732;21005;39.9;-75.17;Philadelphia;US;PA;19145
Wells Metz Theatre;1419;240;39.17;-86.52;Bloomington;US;IN;47405
Wente Vineyards;;1005;37.62;-121.76;Livermore;US;CA;94550
West End Cultural Centre;857;385;49.89;-97.16;Winnipeg;CA;MB;R3B 1Z8
Westchester County Center;1050;4380;41.04;-73.78;White Plains;US;NY;10607
Whiskey Roadhouse-Horseshoe Council Bluffs Casino;932;0;41.24;-95.88;Council Bluffs;US;IA;51501
Whisky A Go Go;194;505;34.09;-118.39;West Hollywood;US;CA;90069
Wilbur Theatre;276;1205;42.35;-71.07;Boston;US;MA;2116
Wildhorse Saloon;954;2005;36.16;-86.78;Nashville;US;TN;37201
William a Egan Civic and Convention Center;;2545;61.22;-149.89;Anchorage;US;AK;99501
Wilshire Ebell Theatre;1129;1275;34.06;-118.33;Los Angeles;US;CA;90005
Wilson Theater at Vogel Hall;713;2310;43.04;-87.91;Milwaukee;US;WI;53203
Winnipeg Convention Centre;;0;49.89;-97.14;Winnipeg;CA;MB;R3C 3J3
Wonderland Ballroom (formerly Club Lido);99;1365;42.41;-70.99;Revere;US;MA;2151
Woodlands Tavern;101;0;39.99;-83.04;Columbus;US;OH;43212
Wow Hall;109;505;44.05;-123.1;Eugene;US;OR;97401
Wright State University Nutter Center;749;10405;39.78;-84.07;Dayton;US;OH;45435
Xcel Energy Center;743;18505;44.94;-93.1;Saint Paul;US;MN;55102
Yankee Stadium;;50290;40.83;-73.93;Bronx;US;NY;10451
Ziff Ballet Opera House The Arsht Center;986;0;25.79;-80.19;Miami;US;FL;33132
Zydeco;375;0;33.5;-86.79;Birmingham;US;AL;35203
Raising Cane’s River Center Arena;753;8905;30.44;-91.19;Baton Rouge;US;LA;70802
L’Auberge Casino & Hotel Baton Rouge;587;1555;30.35;-91.15;Baton Rouge;US;LA;70820
Knoxville Civic Coliseum;1400;7145;35.97;-83.91;Knoxville;US;TN;37915
Springfield Symphony Hall;1575;2615;42.1;-72.59;Springfield;US;MA;1103
Hansen Theatre At Purdue University;1438;305;40.42;-86.91;West Lafeyette;US;IN;47907
Nikon at Jones Beach Theater;;13860;40.6;-73.5;Wantagh;US;NY;11793
Hampton University Convocation Center;260;8205;37.02;-76.33;Hampton;US;VA;23668
PARK THEATRE;1469;255;49.86;-97.13;WINNIPEG;CA;MB;R3L 2B9
Charleston Municipal Auditorium;1424;3485;38.36;-81.64;Charleston;US;WV;25301
Seagate Convention Centre;1502;6205;41.65;-83.54;Toledo;US;OH;43604
Hertz Arena (formerly Germain Arena);750;8285;26.44;-81.78;Estero;US;FL;33928
Convention Hall;1445;1405;40.22;-74;Asbury Park;US;NJ;7712
Washington Park;1466;41420;41.8;-87.6;Chicago;US;IL;60615
Aretha's Jazz Cafe;700;155;42.34;-83.05;Detroit;US;MI;48226
Albany Municipal Auditorium;529;2005;31.58;-84.15;Albany;US;GA;31702
Lee's Palace;1463;565;43.67;-79.41;Toronto;CA;ON;M5S 1Y5
Mid Hudson Civic Center;1454;3055;41.7;-73.93;Poughkeepsie;US;NY;12601
Jacobs Pavilion at Nautica (formerly Nautica Pavilion);1472;5005;41.5;-81.7;Cleveland;US;OH;44113
Ballroom at Red Rock Casino Resort Spa;1452;0;36.16;-115.34;Las Vegas;US;NV;89135
Mezzanine;1484;1005;37.78;-122.41;San Francisco;US;CA;94103
The Theatre at Landers Center;1405;8405;34.93;-90;Southaven;US;MS;38671
Royal George Theatre;1366;450;41.91;-87.65;Chicago;US;IL;60614
Burr Gymnasium;;2705;38.93;-77.02;Washington;US;DC;20059
The Hollow;1319;0;42.65;-73.75;Albany;US;NY;12207
Macon Centreplex Coliseum;1304;9255;32.84;-83.62;Macon;US;GA;31217
Carlson Center;1383;6240;64.84;-147.76;Fairbanks;US;AK;99701
Kaufman Hall;1298;450;34.06;-118.45;Los Angeles;US;CA;90077
Indiana University Studio Theatre;1412;0;39.17;-86.52;Bloomington;US;IN;47405
Dort Federal Event Center (Formerly Perani Arena & Event Center);;6470;43.01;-83.64;Flint;US;MI;48503
CIBC Theatre;1403;2020;41.88;-87.63;Chicago;US;IL;60602
Mayo Civic Center Presentation Hall;1413;1175;44.02;-92.46;Rochester;US;MN;55904
Altria Theater;1427;3005;37.55;-77.45;Richmond;US;VA;23220
Bell Auditorium;1425;5005;33.47;-81.97;Augusta;US;GA;30901
Madrid Theatre;1455;0;39.06;-94.59;Kansas City;US;MO;64111
Uptown Theatre Napa;1456;860;38.3;-122.29;Napa;US;CA;94559
Annex Theatre;;0;43.66;-79.41;Toronto;CA;ON;M5S 2R4
Coliseum Ballroom;1431;2005;27.78;-82.64;St Petersburg;US;FL;33701
Constans Theatre;1451;420;29.64;-82.35;Gainesville;US;FL;32611
Inn of the Mountain Gods Resort and Casino;672;155;33.3;-105.68;Mescalero;US;NM;88340
Madison Theater;1323;1205;39.08;-84.51;Covington;US;KY;41011
Brady Theater;1308;0;36.16;-96;Tulsa;US;OK;74103
KeyBank Center;745;19305;42.87;-78.88;Buffalo;US;NY;14203
Shubert Theatre;1320;835;41.31;-72.93;New Haven;US;CT;6510
Mikko Live at Coushatta Casino Resort;1321;0;30.49;-92.85;Kinder;US;LA;70648
Las Vegas Motor Speedway;;117005;36.27;-115.01;Las Vegas;US;NV;89115
Hudsons Saskatoon;1346;0;0;0;Garwood;US;NJ;7027
Yost Theater;1341;1005;33.75;-117.87;Santa Ana;US;CA;92701
Durty Nellies;1343;1205;42.11;-88.05;Palatine;US;IL;60067
The Square Room;1339;505;35.97;-83.92;Knoxville;US;TN;37902
The Federal Underground;1337;0;33.77;-118.19;Long Beach;US;CA;90802
STARLIGHT;1345;205;43.47;-80.52;WATERLOO;CA;ON;N2J 2W9
Showplace Performance Centre in Peterborough;1278;0;44.3;-78.32;Peterborough;CA;ON;K9J 3H2
Yuengling Center;1347;10005;28.06;-82.42;Tampa;US;FL;33620
Wheeling Island Showroom;1351;1005;40.06;-80.73;Wheeling;US;WV;26003
Scope Arena;1350;8705;36.85;-76.29;Norfolk;US;VA;23510
Margaritaville Resort Casino;218;0;32.52;-93.73;Bossier City;US;LA;71111
HIFI Club;1299;0;51.04;-114.07;Calgary;CA;AB;T2R 0A4
Cal Coast Credit Union Open Air Theatre at SDSU;1285;5005;32.77;-117.08;San Diego;US;CA;92182
The Bitter End;1289;0;41.15;-74.6;New York;US;NY;10012
Oak Mountain Amphitheatre;1288;10290;33.33;-86.78;Birmingham;US;AL;35124
Sloss Furnaces;1294;0;33.52;-86.79;Birmingham;US;AL;35222
Morton H. Meyerson Symphony Center;1365;2065;32.79;-96.8;Dallas;US;TX;75201
Peter Martin Wege Theatre;1280;305;42.96;-85.67;Grand Rapids;US;MI;49503
The Grand Theatre;1284;1555;44.23;-76.49;Kingston;CA;ON;K7L 1B2
UIC Pavilion;1355;10005;41.87;-87.66;Chicago;US;IL;60607
Scherr Forum-Thousand Oaks Civic Arts Plaza;1214;395;34.18;-118.85;Thousand Oaks;US;CA;91362
Borgata Event Center;1317;2405;39.38;-74.43;Atlantic City;US;NJ;8401
Mount Baker Theatre;1309;1510;48.75;-122.48;Bellingham;US;WA;98225
The Railhead at Boulder Station Hotel & Casino;1324;0;36.14;-115.09;Las Vegas;US;NV;89121
Veterans Memorial Coliseum;1316;0;45.53;-122.67;Portland;US;OR;97208
Alberta Bair Theater for the Performing Arts;1307;0;45.78;-108.51;Billings;US;MT;59103
Cramton Auditorium;1369;1510;38.92;-77.02;Washington;US;DC;20059
Boardwalk Hall;1480;17005;39.35;-74.44;Atlantic City;US;NJ;8401
Deco at Old National Centre;1378;0;39.77;-86.15;Indianapolis;US;IN;46204
Cedar Cultural Center;436;455;44.97;-93.25;Minneapolis;US;MN;55454
Rock Bar;1387;0;33.5;-111.93;Scottsdale;US;AZ;85251
Le Skyroom at FIAF;;255;40.76;-73.97;New York;US;NY;10022
UTEP Magoffin Auditorium;1356;1155;31.77;-106.5;El Paso;US;TX;79968
The Vernors Room @ The Crofoot;1381;80;42.64;-83.29;Pontiac;US;MI;48342
Reverb;1372;965;40.36;-75.92;Reading;US;PA;19604
Los Globos;1190;845;34.08;-118.27;Los Angeles;US;CA;90026
Verizon Amphitheatre;1397;12005;34.05;-84.31;Alpharetta;US;GA;30009
Brewsky's;52;545;31.34;-89.35;Hattiesburg;US;MS;39401
Kansas Expocentre;;10005;39.03;-95.68;Topeka;US;KS;66612
Fargodome;1545;27855;46.9;-96.8;Fargo;US;ND;58102
INTRUST Bank Arena;1546;15005;37.68;-97.33;Wichita;US;KS;67202
Target Center;1544;0;44.98;-93.27;Minneapolis;US;MN;55403
El Corazon;1514;0;47.62;-122.33;Seattle;US;WA;98109
Coastal Florida Sports Park;1489;0;28.36;-80.8;Cocoa;US;FL;32926
NIU Convocation Center;398;10005;41.93;-88.78;Dekalb;US;IL;60115
Pyramid Cabaret;1482;405;49.89;-97.14;Winnipeg;CA;MB;R3C 1C9
Thunder Valley Casino Resort;1486;4805;38.84;-121.31;Lincoln;US;CA;95648
Loyola University Maryland;192;0;39.35;-76.62;Baltimore;US;MD;21210
Municipal Auditorium;1584;9705;39.1;-94.59;Kansas City;US;MO;64105
Sioux Falls Orpheum Theater;248;680;43.55;-96.73;Sioux Falls;US;SD;57104
Luckman Fine Arts Complex;1487;1205;34.06;-118.17;Los Angeles;US;CA;90032
Resorts Atlantic City;1009;1005;39.36;-74.42;Atlantic City;US;NJ;8404
Music Box at the Borgata;1490;1005;39.38;-74.43;Atlantic City;US;NJ;8401
The Majestic Complex;1518;1005;42.35;-83.06;Detroit;US;MI;48201
Brown County Arena;1543;0;44.5;-88.06;Green Bay;US;WI;54304
NYU and Various Venues Throughout NYC;1526;0;40.73;-74;New York;US;NY;10012
Bentonville High School Tiger Arena;1519;0;40.72;-73.99;Bentonville;US;AR;72712
Vicksburg Convention Center;1481;2405;32.35;-90.88;Vicksburg;US;MS;39183
Sprint Pavilion;1478;3505;38.03;-78.48;Charlottesville;US;VA;22902
Garrett Coliseum Parking Lot;1435;0;32.4;-86.27;Montgomery;US;AL;36107
Avalon;1507;2005;34.1;-118.33;Hollywood;US;CA;90028
San Manuel Casino;1492;3705;34.15;-117.23;Highland;US;CA;92346
Templar's Hall in Old Poway Park;1537;80;32.97;-117.04;Poway;US;CA;92064
Chateau Le Jardin Event Venue;;0;43.79;-79.63;Woodbridge;CA;ON;L4L 1A5
Arlene Schnitzer Concert Hall;1449;2780;45.52;-122.68;Portland;US;OR;97205
Cargo;1542;405;39.53;-119.81;Reno;US;NV;89501
Atlanta Coliseum;1511;5005;33.96;-84.13;Duluth;US;GA;30096
Grand Casino Mille Lacs Event Center;1504;1610;46.18;-93.76;Onamia;US;MN;56359
Floyd Stadium  MTSU;1577;30790;35.85;-86.36;Murfreesboro;US;TN;37132
Brooks Atkinson Theatre;1571;1070;40.76;-73.99;New York;US;NY;10036
Paramount Fine Foods Centre (formerly Hershey Centre);1594;6005;43.63;-79.66;Mississauga;CA;ON;L4Z 4B6
The Aquarium (Dempsey's Upstairs);261;305;46.88;-96.79;Fargo;US;ND;58102
Glen Helen Amphitheater formerly San Manuel Amphitheater;;2005;34.21;-117.41;San Bernardino;US;CA;92407
Rochester Riverside Convention Center;1460;125;43.16;-77.61;Rochester;US;NY;14604
The French Consulate;1477;0;40.77;-73.97;New York;US;NY;10021
Global Event Center at WinStar World Casino and Resort;319;3505;33.76;-97.13;Thackerville;US;OK;73459
Orpheum Theatre (Wichita);1491;0;37.69;-97.34;Wichita;US;KS;67202
CD & ME Special Events & Banquets;106;0;41.47;-87.89;Frankfort;US;IL;60423
Bellco Theatre;1448;5005;39.74;-104.99;Denver;US;CO;80207
Bold Sphere Music at Champions Square;;76470;29.95;-90.08;New Orleans;US;LA;70112
McCoy Center;1510;0;40.08;-82.81;New Albany;US;OH;43054
Budweiser Events Center;1547;7205;40.44;-104.99;Loveland;US;CO;80538
Elliott Hall of Music;1581;6010;40.43;-86.92;West Lafayette;US;IN;47907